{
  "zhongdananfan": [
    {
      "id": 0,
      "name": "中山大学南方学院",
      "Latitude": "23.638368",
      "Longitude": "113.685752",
      "address": "广东省广州市从化区温泉镇温泉大道882号",
      "image": "/res/drawable/xueyuan.jpg",
      "xiangqing": "中山大学南方学院是2006年经教育部批准，由中山大学与广东珠江投资集团合作创办的独立学院，是一所多学科全日制应用型本科高等学校，2016年被遴选为广东省普通本科转型试点高校。"
    },
    {
      "id": 1,
      "name": "中山大学南方学院-西北门",
      "Latitude": "23.649916",
      "Longitude": "113.678179",
      "address": "温泉大道882",
      "image": "/res/drawable/men.jpg",
      "xiangqing": "这里是正门，学生出入的地方，是我校南北景观轴乃至整个校园的标志性建筑之一。建筑由中间的凯旋门式大门配以左右对称的东西柱廊组成"
    },
    {
      "id": 2,
      "name": "中山大学南方学院车站",
      "Latitude": "23.640809",
      "Longitude": "113.683868",
      "address": "广东省广州市从化区中山路",
      "image": "/res/drawable/xueyuan.jpg",
      "xiangqing": "车站是交通运输生产的基地。旅客乘降、货物承运、列车到发及解编、机车和乘务组的整备和换乘、列检和货物检查，都在车站办理，车站集中了与行车有关的技术设备。"
    },
    {
      "id": 3,
      "name": "中山大学南方学院教学楼-10号",
      "Latitude": "23.638733",
      "Longitude": "113.686278",
      "address": "广州市从化区",
      "image": "/res/drawable/jiaoxuelou.jpg",
      "xiangqing": "学校建筑是人们为了达到特定的教育目的而兴建的教育活动场所，其品质的优劣直接影响到学校教育活动的正常开展，关系到学校人才培养的质量，同时它作为载体还是一个社会的教育思想与价值观念、经济与文化面貌等的具体体现者，因此其重要性不言而喻。"
    },
    {
      "id": 4,
      "name": "中山大学南方学院-南门",
      "Latitude": "23.634331",
      "Longitude": "113.684732",
      "address": "广东省广州市从化区博学路",
      "image": "/res/drawable/xueyuan.jpg",
      "xiangqing": "这里是后门，学生出入的地方"
    },
    {
      "id": 5,
      "name": "中山大学南方学院教学楼-8号",
      "Latitude": "23.638973",
      "Longitude": "113.686268",
      "address": "广东省广州市从化区博学路",
      "image": "/res/drawable/jiaoxuelou.jpg",
      "xiangqing": "学校建筑是人们为了达到特定的教育目的而兴建的教育活动场所，其品质的优劣直接影响到学校教育活动的正常开展，关系到学校人才培养的质量，同时它作为载体还是一个社会的教育思想与价值观念、经济与文化面貌等的具体体现者，因此其重要性不言而喻。"
    },
    {
      "id": 6,
      "name": "中山大学南方学院校园网络一站式服务中心",
      "Latitude": "23.636707",
      "Longitude": "113.686374",
      "address": "广东省广州市从化区温泉镇中山大学南方学院",
      "image": "/res/drawable/xueyuan.jpg",
      "xiangqing": "开通校园网的地方，提供网络服务，和人工服务"
    },
    {
      "id": 7,
      "name": "中山大学南方学院教学楼9号",
      "Latitude": "23.638869",
      "Longitude": "113.686277",
      "address": "中山大学南方学院",
      "image": "/res/drawablejiaoxuelou.jpg",
      "xiangqing": "学校建筑是人们为了达到特定的教育目的而兴建的教育活动场所，其品质的优劣直接影响到学校教育活动的正常开展，关系到学校人才培养的质量，同时它作为载体还是一个社会的教育思想与价值观念、经济与文化面貌等的具体体现者，因此其重要性不言而喻。"
    },
    {
      "id": 8,
      "name": "中山大学南方学院学生宿舍-1号",
      "Latitude": "23.636742",
      "Longitude": "113.683165",
      "address": "温泉大道882号",
      "image": "/res/drawable/sushe1.jpg",
      "xiangqing": "大学宿舍是一个神奇的地方，来自于天南地北的同学聚集在一个屋檐下，并将在一起度过宝贵的大学时光。人们常说，没有住过宿舍的大学是不完整的。当然不同的大学宿舍环境条件都不一样。大学宿舍是一个神奇的地方，来自于天南地北的同学聚集在一个屋檐下，并将在一起度过宝贵的大学时光。人们常说，没有住过宿舍的大学是不完整的。当然不同的大学宿舍环境条件都不一样。"
    },
    {
      "id": 9,
      "name": "中山大学南方学院-体育馆",
      "Latitude": "23.639479",
      "Longitude": "113.687893",
      "address": "温泉大道886号中山大学南方学院内",
      "image": "/res/drawable/tiyuguang.jpg",
      "xiangqing": "体育场馆是进行运动训练、运动竞赛及身体锻炼的专业性 场所。它是为了满足运动训练、运动竞赛及大众体育消费需要而专门修建的各类运动场所的总称。体育场馆主要包括对社会公众开放并提供各类服务的体育场、体育馆、游泳馆，体育教学训练所需的田径棚、风雨操场、运动场及其他各类室内外场地、群众体育健身娱乐休闲活动所需的体育俱乐部、健身房、体操房和其他简易的健身娱乐场地等。"
    },
    {
      "id": 10,
      "name": "中山大学南方学院教学楼5号",
      "Latitude": "23.639842",
      "Longitude": "113.684577",
      "address": "广东省广州市从化区博学路7",
      "image": "/res/drawable/jiaoxuelou7.jpg",
      "xiangqing": "教学楼是人们为了达到特定的教育目的而兴建的教育活动场所，其品质的优劣直接影响到学校教育活动的正常开展，关系到学校人才培养的质量，同时它作为载体还是一个社会的教育思想与价值观念、经济与文化面貌等的具体体现者，因此其重要性不言而喻。"
    },
    {
      "id": 11,
      "name": "中山大学南方学院教学楼-6号",
      "Latitude": "23.639286",
      "Longitude": "113.684753",
      "address": "温泉大道882",
      "image": "/res/drawable/jiaoxuelou7.jpg",
      "xiangqing": "教学楼是人们为了达到特定的教育目的而兴建的教育活动场所，其品质的优劣直接影响到学校教育活动的正常开展，关系到学校人才培养的质量，同时它作为载体还是一个社会的教育思想与价值观念、经济与文化面貌等的具体体现者，因此其重要性不言而喻。"
    },
    {
      "id": 12,
      "name": "中山大学南方学院-图书馆",
      "Latitude": "23.638541",
      "Longitude": "113.685423",
      "address": "广东省广州市从化区温泉大道882号中山大学南方学院内",
      "image": "/res/drawable/xueyuan.jpg",
      "xiangqing": " 学校图书馆面积2.91万平方米，藏书134.25万册，共享中山大学图书馆中文电子期刊68375种；外文电子期刊52123种；中文电子图书154.37万册；外文电子图书55.98万册，还有中国知网期刊数据库、超星移动图书馆、博看畅销期刊数据库和联图随书光盘检索平台，已初步建设成为数字化图书馆，更开创广东省高校图书馆24小时开放的管理模式，全方位满足读者需求。"
    },
    {
      "id": 13,
      "name": "中山大学南方学院西区操场",
      "Latitude": "23.637912",
      "Longitude": "113.681047",
      "address": "广东省广州市从化区博学路",
      "image": "/res/drawable/tiyuguan2.jpg",
      "xiangqing": "西区操场是进行运动训练、运动竞赛及身体锻炼的专业性 场所。它是为了满足运动训练、运动竞赛及大众体育消费需要而专门修建的各类运动场所的总称。主要包括对社会公众开放并提供各类服务的体育场、体育馆、游泳馆，体育教学训练所需的田径棚、风雨操场、运动场及其他各类室内外场地、群众体育健身娱乐休闲活动所需的体育俱乐部、健身房、体操房和其他简易的健身娱乐场地等。"
    },
    {
      "id": 14,
      "name": "中山大学南方学院2号行政楼",
      "Latitude": "23.640167",
      "Longitude": "113.684122",
      "address": "广东省广州市从化区博学路",
      "image": "/res/drawable/xingzhenglou.jpg",
      "xiangqing": "这里一般是学生办理一些学校业务，办理学生的课程、学生、水卡等"
    },
    {
      "id": 15,
      "name": "中山大学南方学院东学楼17号楼",
      "Latitude": "23.641082",
      "Longitude": "113.687888",
      "address": "广州市从化区",
      "image": "/res/drawable/jiaoxuelou.jpg",
      "xiangqing": "大学宿舍是一个神奇的地方，来自于天南地北的同学聚集在一个屋檐下，并将在一起度过宝贵的大学时光。人们常说，没有住过宿舍的大学是不完整的。当然不同的大学宿舍环境条件都不一样。大学宿舍是一个神奇的地方，来自于天南地北的同学聚集在一个屋檐下，并将在一起度过宝贵的大学时光。人们常说，没有住过宿舍的大学是不完整的。当然不同的大学宿舍环境条件都不一样。"
    },
    {
      "id": 16,
      "name": "中山大学南方学院东学楼16号楼",
      "Latitude": "23.64134",
      "Longitude": "113.687529",
      "address": "广州市从化区",
      "image": "/res/drawable/jiaoxuelou.jpg",
      "xiangqing": "大学宿舍是一个神奇的地方，来自于天南地北的同学聚集在一个屋檐下，并将在一起度过宝贵的大学时光。人们常说，没有住过宿舍的大学是不完整的。当然不同的大学宿舍环境条件都不一样。大学宿舍是一个神奇的地方，来自于天南地北的同学聚集在一个屋檐下，并将在一起度过宝贵的大学时光。人们常说，没有住过宿舍的大学是不完整的。当然不同的大学宿舍环境条件都不一样。"
    },
    {
      "id": 17,
      "name": "中山大学南方学院东学楼17号楼",
      "Latitude": "23.641082",
      "Longitude": "113.687888",
      "address": "广州市从化区",
      "image": "/res/drawable/jiaoxuelou.jpg",
      "xiangqing": "大学宿舍是一个神奇的地方，来自于天南地北的同学聚集在一个屋檐下，并将在一起度过宝贵的大学时光。人们常说，没有住过宿舍的大学是不完整的。当然不同的大学宿舍环境条件都不一样。大学宿舍是一个神奇的地方，来自于天南地北的同学聚集在一个屋檐下，并将在一起度过宝贵的大学时光。人们常说，没有住过宿舍的大学是不完整的。当然不同的大学宿舍环境条件都不一样。"
    },
    {
      "id": 18,
      "name": "中山大学南方学院聚贤楼7号",
      "Latitude": "23.642752",
      "Longitude": "113.687493",
      "address": "广州市从化区",
      "image": "/res/drawable/xueyuan.jpg",
      "xiangqing": ""
    },
    {
      "id": 19,
      "name": "中山大学南方学教学楼7号",
      "Latitude": "23.639182",
      "Longitude": "113.685119",
      "address": "广州市从化区",
      "image": "/res/drawable/jiaoxuelou7.jpg",
      "xiangqing": "教学楼是人们为了达到特定的教育目的而兴建的教育活动场所，其品质的优劣直接影响到学校教育活动的正常开展，关系到学校人才培养的质量，同时它作为载体还是一个社会的教育思想与价值观念、经济与文化面貌等的具体体现者，因此其重要性不言而喻。"
    },
    {
      "id": 20,
      "name": "H21学生宿舍楼",
      "Latitude": "23.639691",
      "Longitude": "113.690104",
      "address": "广州市从化区",
      "image": "/res/drawable/xueyuan.jpg",
      "xiangqing": "大学宿舍是一个神奇的地方，来自于天南地北的同学聚集在一个屋檐下，并将在一起度过宝贵的大学时光。人们常说，没有住过宿舍的大学是不完整的。当然不同的大学宿舍环境条件都不一样。大学宿舍是一个神奇的地方，来自于天南地北的同学聚集在一个屋檐下，并将在一起度过宝贵的大学时光。人们常说，没有住过宿舍的大学是不完整的。当然不同的大学宿舍环境条件都不一样。"
    },
    {
      "id": 21,
      "name": "H22学生宿舍楼",
      "Latitude": "23.63936",
      "Longitude": "113.690288",
      "address": "广州市从化区",
      "image": "/res/drawable/shuse_chi.jpg",
      "xiangqing": "宿舍有独立的卫生间，冲凉房跟茅厕是分开的。不过洗衣机需要自己买。热水供应也不是时常有的，在每天18点-22点30。其实夏天中午也有一段时间是有热水的。宿舍有独立的卫生间，冲凉房跟茅厕是分开的。不过洗衣机需要自己买。热水供应也不是时常有的，其实夏天中午也有一段时间是有热水的。"
    },
    {
      "id": 22,
      "name": "H23学生宿舍楼",
      "Latitude": "23.639083",
      "Longitude": "113.690553",
      "address": "广州市从化区",
      "image": "/res/drawable/sushe3.jpg",
      "xiangqing": "宿舍有独立的卫生间，不过洗衣机需要自己买。热水供应也不是时常有的，在每天18点-22点30。其实夏天中午也有一段时间是有热水的。宿舍有独立的卫生间，冲凉房跟茅厕是分开的。不过洗衣机需要自己买。热水供应也不是时常有的。"
    },
    {
      "id": 23,
      "name": "东区饭堂",
      "Latitude": "23.639956",
      "Longitude": "113.688757",
      "address": "广州市从化区",
      "image": "/res/drawable/xueyuan.jpg",
      "xiangqing": "这里是东区饭堂，是学生们吃饭的地方，学校一共有三个饭堂。"
    },
    {
      "id": 24,
      "name": "东学楼18号",
      "Latitude": "23.640692",
      "Longitude": "113.688186",
      "address": "广州市从化区",
      "image": "/res/drawable/sushe3.jpg",
      "xiangqing": "大学宿舍是一个神奇的地方，来自于天南地北的同学聚集在一个屋檐下，并将在一起度过宝贵的大学时光。人们常说，没有住过宿舍的大学是不完整的。当然不同的大学宿舍环境条件都不一样。大学宿舍是一个神奇的地方，来自于天南地北的同学聚集在一个屋檐下，并将在一起度过宝贵的大学时光。人们常说，没有住过宿舍的大学是不完整的。当然不同的大学宿舍环境条件都不一样。"
    },
    {
      "id": 25,
      "name": "东学楼29号",
      "Latitude": "23.640634",
      "Longitude": " 113.689417",
      "address": "广州市从化区",
      "image": "/res/drawable/sushe3.jpg",
      "xiangqing": "大学宿舍是一个神奇的地方，来自于天南地北的同学聚集在一个屋檐下，并将在一起度过宝贵的大学时光。人们常说，没有住过宿舍的大学是不完整的。当然不同的大学宿舍环境条件都不一样。大学宿舍是一个神奇的地方，来自于天南地北的同学聚集在一个屋檐下，并将在一起度过宝贵的大学时光。人们常说，没有住过宿舍的大学是不完整的。当然不同的大学宿舍环境条件都不一样。"
    },
    {
      "id": 26,
      "name": "东学楼30号",
      "Latitude": "23.640316",
      "Longitude": "113.689597",
      "address": "广州市从化区",
      "image": "/res/drawable/xueyuan.jpg",
      "xiangqing": "大学宿舍是一个神奇的地方，来自于天南地北的同学聚集在一个屋檐下，并将在一起度过宝贵的大学时光。人们常说，没有住过宿舍的大学是不完整的。当然不同的大学宿舍环境条件都不一样。大学宿舍是一个神奇的地方，来自于天南地北的同学聚集在一个屋檐下，并将在一起度过宝贵的大学时光。人们常说，没有住过宿舍的大学是不完整的。当然不同的大学宿舍环境条件都不一样。"
    },
    {
      "id": 27,
      "name": "东学楼31号",
      "Latitude": "23.640014",
      "Longitude": "113.689673",
      "address": "广州市从化区",
      "image": "/res/drawable/xueyuan.jpg",
      "xiangqing": "大学宿舍是一个神奇的地方，来自于天南地北的同学聚集在一个屋檐下，并将在一起度过宝贵的大学时光。人们常说，没有住过宿舍的大学是不完整的。当然不同的大学宿舍环境条件都不一样。大学宿舍是一个神奇的地方，来自于天南地北的同学聚集在一个屋檐下，并将在一起度过宝贵的大学时光。人们常说，没有住过宿舍的大学是不完整的。当然不同的大学宿舍环境条件都不一样。"
    },
    {
      "id": 28,
      "name": "东学楼28号",
      "Latitude": "23.641764",
      "Longitude": "113.68877",
      "address": "广州市从化区",
      "image": "/res/drawable/xueyuan.jpg",
      "xiangqing": "大学宿舍是一个神奇的地方，来自于天南地北的同学聚集在一个屋檐下，并将在一起度过宝贵的大学时光。人们常说，没有住过宿舍的大学是不完整的。当然不同的大学宿舍环境条件都不一样。大学宿舍是一个神奇的地方，来自于天南地北的同学聚集在一个屋檐下，并将在一起度过宝贵的大学时光。人们常说，没有住过宿舍的大学是不完整的。当然不同的大学宿舍环境条件都不一样。"
    },
    {
      "id": 29,
      "name": "浦发银行",
      "Latitude": "23.641566",
      "Longitude": "113.685685",
      "address": "广州市从化区",
      "image": "/res/drawable/xueyuan.jpg",
      "xiangqing": "学校内部有一个合作的银行--浦发银行，可以方便学生的存取钱"
    }
  ],
  "huguangyan": [
    {
      "id": 0,
      "name": "湖光岩风景区",
      "Latitude": "21.145136",
      "Longitude": "110.291904",
      "address": "湛江市麻章区湖光镇",
      "image": "/res/drawable/huguangyan.jpg",
      "xiangqing": "湖光岩风景区位于中国大陆最南端湛江市区西南18公里处，被联合国地质专家称为研究地球与地质科学的“天然年鉴”。总面积为38平方公里，园区是一个以玛珥火山地质地貌为主体，兼有海岸地貌、构造地质地貌等多种地质遗迹，自然生态良好的公园。"
    },
    {
      "id": 1,
      "name": "湛江市麻章区湖光镇",
      "Latitude": "21.146159",
      "Longitude": "110.280358",
      "address": "湛江市麻章区湖光镇",
      "image": "/res/drawable/huguangzhen.jpg",
      "xiangqing": "湖光镇位于雷州半岛的东北部，区域范围从北纬21°2 30\"至21° 10 8\" ，从东经110°12 37\"至110°20 44\"，距离湛江市中心城区霞山区13公里，距离湛江机场15公里、火车南站13公里、火车西站15公里，有公交线路：3、6、9、18线公交车。南面东海岛，陆地面积152.42平方千米（2017年），海岸线长46公里，下辖24个村委会，2个居委会，68条自然村，总人口74905人（2017年），交通便利，区位优势十分明显，省道S373线，疏港大道、湖光快线和新湖大道穿越境内，是通往广州、霞山、遂溪、雷州、徐闻、海南省和东海岛的交通枢纽。"
    },
    {
      "id": 2,
      "name": "湖光岩-龙鱼神龟",
      "Latitude": "21.151328",
      "Longitude": "110.302051",
      "address": "湛江市麻章区湖光镇雷琼世界地质公园湖光岩景区内",
      "image": "/res/drawable/longyanshengui.jpg",
      "xiangqing": "东门广场的龙鱼神龟雕像，取材于湖光岩的龙鱼神龟传说。自1998年5月28日国防大学将军班60多位学员首次发现湖光岩传说中4米多长的龙鱼和近2米宽的大龟遨游湖中的奇观后，又相继有许多游客亲眼目睹了湖中有大龟、大鱼出没。为此在湖光岩东门广场修建龙鱼神龟雕像。"
    },
    {
      "id": 3,
      "name": "湖光岩风景区-东门",
      "Latitude": "21.151505",
      "Longitude": "110.301953",
      "address": "广东省湛江市麻章区海洋大学附近",
      "image": "/res/drawable/dongmen.jpg",
      "xiangqing": "湖光岩风景区-东门"
    },
    {
      "id": 4,
      "name": "湖光岩风景区望海楼",
      "Latitude": "21.144376",
      "Longitude": "110.290394",
      "address": "湛江市麻章区海洋大学附近湖光岩风景区内",
      "image": "/res/drawable/wanghailou.jpg",
      "xiangqing": "望海楼坐落于湖光岩最高点的山顶上，楼高三层，楼内有石梯通往二楼和三楼，楼内有粤西最大最高的室内观音圣像。望海楼四周还建有放生池，在湖光岩的玛珥湖边还建有一座“示迷津”牌坊，望海楼与牌坊之间由一条植有千株菩提树的山路连接。"
    },
    {
      "id": 5,
      "name": "湖光岩风景区-售票处",
      "Latitude": "21.151775",
      "Longitude": "110.301908",
      "address": "广东省湛江市麻章区湖光镇湖光岩风景区",
      "image": "/res/drawable/shoupiao.jpg",
      "xiangqing": "买票的地方"
    },
    {
      "id": 6,
      "name": "湖光岩-火山岩奇壁景观",
      "Latitude": "21.144561",
      "Longitude": "110.284364",
      "address": "广东省湛江市麻章区湖光镇湖光岩风景区火山岩奇壁景观",
      "image": "/res/drawable/huoshanqibi.jpg",
      "xiangqing": " 该岩壁形成于第四纪晚更新世，由玄武质火山角砾岩，火山角砾岩与凝灰岩互层等组成，含火山集块和火山弹，发育平行层理，波状层理和透镜状层理，喷发韵律，节理构造，湖蚀凹槽，崩塌痕迹及差异风化等现象清晰可见。该火山岩来源于第四纪晚更新世（约14万年以前）的息性火山爆发，火山喷发时，地下岩浆沿着断裂上升，并与地下水接触，积累了巨大的压力，然后冲破松散的沉积盖层发生猛烈的爆炸，将大量的蒸汽、炙热的岩块、火山角砾、火山渣以及围岩物质等抛射出来，散落堆积，经过压实固结而成岩。后经湖蚀、风化崩塌而成现今火山岩奇壁景观，是自然的火山地质博物馆。"
    },
    {
      "id": 7,
      "name": "湖光岩风景区-停车场",
      "Latitude": "21.146338",
      "Longitude": "110.280526",
      "address": "湛江市麻章区海洋大学附近湖光岩风景区内",
      "image": "/res/drawable/tingchechang.jpg",
      "xiangqing": "停车的地方"
    },
    {
      "id": 8,
      "name": "湖光岩-楞严寺",
      "Latitude": "21.144233",
      "Longitude": "110.288165",
      "address": "广州市从化区",
      "image": "/res/drawable/lengyansi.jpg",
      "xiangqing": "寺庙始建于隋代末年，距今已有1400多年的历史，该寺由天王殿和大雄宝殿组成，是全国十八大古刹之一。楞严寺的独特之处在于大雄宝殿，宝殿是依天然火山岩洞修建而成。天王殿伺奉着弥勒佛、韦驮及护法大神四大天王。大雄宝殿伺奉横三世佛（消灾延寿药师佛、释迦牟尼佛、南无阿弥陀佛）、十八罗汉、千手观音、送子观音等30多尊佛像。寺内右侧岩壁上刻着李纲的两首诗：《还至城月别琮师》和《赠琮师》"
    },
    {
      "id": 9,
      "name": "湖光岩-地震馆",
      "Latitude": "21.146062",
      "Longitude": "110.282208",
      "address": "湛江市麻章区湖光镇雷琼世界地质公园湖光岩景区内",
      "image": "/res/drawable/dizhenguan.jpg",
      "xiangqing": "湖光岩地震馆是在湛江市地震局和湖光岩风景区管理局合作建设的防震减灾科普教育场馆。地震馆占地面积2000多平方米，分为展示厅、地震模型厅、火山模型厅三个功能区，以声、光、电、展版和模拟动态演示为一体，集知识性、科普性、趣味性、互动性为形式的一个地震科普活动场所。馆内建造地震模拟平台、张衡地震仪、桥梁、山洪水坝、房屋、遂道、山洞，利用全自动化的现代科技手段，精彩演示了火山地震造成的雷鸣闪电、刮风下雨、山洪暴发、山体滑坡、地面震动、房屋倒塌、桥梁震断、车辆翻倒等灾害场景，通过全过程的演示，使人们亲身感受到火山地震惊心动魄的场面。游客还可以在这里游览展板、听取科普讲座、观看地震录像、地震地磁仪器，全方位地学习地震知识，加深对地震灾害的认识，提高公众对地震应急避险和自救自护能力。"
    },
    {
      "id": 10,
      "name": "湖光岩-观音楼",
      "Latitude": "21.144527",
      "Longitude": "110.28829",
      "address": "广东省湛江市麻章区湖光镇湖光岩风景区楞严寺",
      "image": "/res/drawable/guanyinlou.jpg",
      "xiangqing": "仰望观音像雄伟壮观，金碧辉煌。拾级而上三楼，只见观音头像慈眉善目，和蔼可亲。透过窗台，望海观音可远眺大海，为众生苦渡指点迷津；居高临下，水月观音可俯瞰湖光镜月，保一方净土和谐平安。"
    },
    {
      "id": 11,
      "name": "湖光岩-涌流凝灰岩",
      "Latitude": "21.154144",
      "Longitude": "110.298935",
      "address": "湛江市麻章区海洋大学附近湖光岩风景区内",
      "image": "/res/drawable/huiyan.jpg",
      "xiangqing": "其组成的火山碎屑物质有50%以上的颗粒直径小于2毫米，成分主要是火山灰，外貌疏松粗糙或致密，有层理的称为层凝灰岩；因成分不同导致颜色多样，有紫红色、灰白色、灰绿色等"
    },
    {
      "id": 12,
      "name": "湖光岩-白衣庵",
      "Latitude": "21.152078",
      "Longitude": "110.282817",
      "address": "湛江市麻章区海洋大学附近湖光岩风景区内",
      "image": "/res/drawable/baiyian.jpg",
      "xiangqing": "白衣庵建于宋朝时期，距今将近900年的历史，由于庵堂里面一直供奉一座白色观音泥塑像而取名“白衣庵”。庵洞深约7米，宽约11米，高4米，洞顶有石乳石窝微微凸显。岩室宽大如厅，可容百人，堂上供佛像10多尊。1992年，白衣庵前增建一座三世佛室，室门书有对联：“湖水漾清波，禅寺钟声敲镜月；岩云封古洞，狮峰林影弄烟霞”"
    },
    {
      "id": 13,
      "name": "湖光岩-蛇神仙",
      "Latitude": "21.152811",
      "Longitude": "110.283485",
      "address": "广东省湛江市麻章区湖光岩风景区蛇神仙",
      "image": "/res/drawable/sheshenxian.jpg",
      "xiangqing": "湖光岩-蛇神仙"
    },
    {
      "id": 14,
      "name": "湖光岩-观岩栈道",
      "Latitude": "21.151564",
      "Longitude": "110.282478",
      "address": "湛江市麻章区湖光镇雷琼世界地质公园湖光岩景区内",
      "image": "/res/drawable/guanyanzhandao.jpg",
      "xiangqing": "湖光岩-观岩栈道"
    },
    {
      "id": 15,
      "name": "湖光岩-清风林",
      "Latitude": "21.143642",
      "Longitude": "110.293293",
      "address": "湛江市麻章区湖光镇雷琼世界地质公园湖光岩景区内",
      "image": "/res/drawable/qingfenglin.jpg",
      "xiangqing": "清风林于2007年7月建成，由中央纪委、广东省纪委和湛江市纪委三级合力打造的一座廉政教育基地。清风林主要由清风林广场、廉石、清风亭竹林，莲花池等主体景观组成。"
    },
    {
      "id": 16,
      "name": "湖光岩-将军林",
      "Latitude": "21.158329",
      "Longitude": "110.292339",
      "address": "广东省湛江市麻章区湖光镇湖光岩风景区将军林",
      "image": "/res/drawable/huguangyan.jpg",
      "xiangqing": "湖光岩-将军林"
    },
    {
      "id": 17,
      "name": "湖光岩风景区-第四纪断层遗迹",
      "Latitude": "21.155945",
      "Longitude": "110.286246",
      "address": "湛江市麻章区湖光镇雷琼世界地质公园湖光岩景区内",
      "image": "/res/drawable/huguangyan.jpg",
      "xiangqing": "湖光岩风景区-第四纪断层遗迹"
    },
    {
      "id": 18,
      "name": "湖光岩-千年墙",
      "Latitude": "21.145885",
      "Longitude": "110.282784",
      "address": "广东省湛江市麻章区湖光镇湖光岩风景区千年墙",
      "image": "/res/drawable/huguangyan.jpg",
      "xiangqing": "湖光岩-千年墙"
    },
    {
      "id": 19,
      "name": "湖光岩-龟背状玄武岩",
      "Latitude": "21.154101",
      "Longitude": "110.299078",
      "address": "湛江市麻章区湖光镇雷琼世界地质公园湖光岩景区内",
      "image": "/res/drawable/guibei.jpg",
      "xiangqing": "湖光岩-龟背状玄武岩"
    },
    {
      "id": 20,
      "name": "湖光岩-许愿树",
      "Latitude": "21.15293",
      "Longitude": "110.283584",
      "address": "湛江市麻章区湖光镇雷琼世界地质公园湖光岩景区内",
      "image": "/res/drawable/huguangyan.jpg",
      "xiangqing": "湖光岩-许愿树"
    },
    {
      "id": 21,
      "name": "湖光岩-涌流凝灰岩层",
      "Latitude": "21.151809",
      "Longitude": "110.282567",
      "address": "湛江市麻章区湖光镇雷琼世界地质公园湖光岩景区内",
      "image": "/res/drawable/huguangyan.jpg",
      "xiangqing": "湖光岩-涌流凝灰岩层"
    },
    {
      "id": 22,
      "name": "湖光岩-将军道",
      "Latitude": "21.158331",
      "Longitude": "110.292315",
      "address": "湛江市麻章区湖光镇雷琼世界地质公园湖光岩景区内",
      "image": "/res/drawable/huguangyan.jpg",
      "xiangqing": "湖光岩-将军道"
    },
    {
      "id": 23,
      "name": "湖光岩-九曲桥",
      "Latitude": "21.146364",
      "Longitude": "1110.282541",
      "address": "湛江市麻章区湖光镇雷琼世界地质公园湖光岩景区内",
      "image": "/res/drawable/jiuquqiao.jpg.jpg",
      "xiangqing": "按佛家的说法，人生只有曲和直两种状态，所以，走过了九曲桥，人生将是一片坦途。"
    },
    {
      "id": 24,
      "name": "湖光岩-岩狮洞",
      "Latitude": "21.15234",
      "Longitude": "110.282901",
      "address": "湛江市麻章区湖光镇雷琼世界地质公园湖光岩景区内",
      "image": "/res/drawable/huguangyan.jpg",
      "xiangqing": "湖光岩-岩狮洞"
    },
    {
      "id": 25,
      "name": "湖光岩-法官林",
      "Latitude": "21.157893",
      "Longitude": "110.291039",
      "address": "湛江市麻章区湖光镇雷琼世界地质公园湖光岩景区内",
      "image": "/res/drawable/huguangyan.jpg",
      "xiangqing": "湖光岩-法官林"
    }
  ],
  "baiyunshan": [
    {
      "id": 0,
      "name": "白云山",
      "Latitude": "23.176376",
      "Longitude": "113.572903",
      "address": "广州市黄埔区",
      "image": "/res/drawable/baiyunshan.jpg",
      "xiangqing": "白云山"
    },
    {
      "id": 1,
      "name": "白云山国家级风景名胜区西门-售票处",
      "Latitude": "23.202923",
      "Longitude": "113.293268",
      "address": "广园中路801号",
      "image": "/res/drawable/shoupiaochu.jpg",
      "xiangqing": "白云山国家级风景名胜区西门-售票处"
    },
    {
      "id": 2,
      "name": "白云山蹦极",
      "Latitude": "23.169455",
      "Longitude": "113.31074",
      "address": "广东省广州市白云区广园中路801号白云山风景名胜区内",
      "image": "/res/drawable/bengji.jpg",
      "xiangqing": "白云山蹦极"
    },
    {
      "id": 3,
      "name": "白云山风景名胜区-桃花涧",
      "Latitude": "23.197683",
      "Longitude": "113.313586",
      "address": "广州市白云区白云大道1128号白云山明珠楼游览区",
      "image": "/res/drawable/taohuajian.jpg",
      "xiangqing": "白云山风景名胜区-桃花涧"
    },
    {
      "id": 4,
      "name": "白云山风景名胜区-云溪生态公园",
      "Latitude": "23.188778",
      "Longitude": "113.287015",
      "address": "白云区白云大道南1038号",
      "image": "/res/drawable/yunxi.jpg",
      "xiangqing": "白云山风景名胜区-云溪生态公园"
    },
    {
      "id": 5,
      "name": "白云山摩星岭",
      "Latitude": "23.188995",
      "Longitude": "113.307707",
      "address": "广东省广州市白云区白云山景区",
      "image": "/res/drawable/mexingling.jpg",
      "xiangqing": "白云山摩星岭"
    },
    {
      "id": 6,
      "name": "白云山濂泉门",
      "Latitude": "23.167543",
      "Longitude": "113.312493",
      "address": "广东省广州市白云区濂泉路",
      "image": "/res/drawable/lianqianmen.jpg",
      "xiangqing": "白云山濂泉门"
    },
    {
      "id": 7,
      "name": "白云山山顶广场",
      "Latitude": "23.17792",
      "Longitude": "113.307711",
      "address": "广园中路801号白云山风景名胜区内",
      "image": "/res/drawable/shandingguangchang.jpg",
      "xiangqing": "白云山山顶广场"
    },
    {
      "id": 8,
      "name": "白云山原始森林公园",
      "Latitude": "23.245316",
      "Longitude": "113.332068",
      "address": "白云大道北",
      "image": "/res/drawable/yuanshi.jpg",
      "xiangqing": "白云山原始森林公园"
    },
    {
      "id":9,
      "name": "白云山风景名胜区-黄婆洞水库",
      "Latitude": "23.201858",
      "Longitude": "113.312283",
      "address": "广园中路801号白云山风景名胜区内",
      "image": "/res/drawable/huangpodong.jpg",
      "xiangqing": "白云山风景名胜区-黄婆洞水库"
    },
    {
      "id": 10,
      "name": "白云畔山花园",
      "Latitude": "23.188004",
      "Longitude": "113.324333",
      "address": "广州大道北梅岗路131-173号",
      "image": "/res/drawable/huayuan.jpg",
      "xiangqing": "白云畔山花园"
    },
    {
      "id": 11,
      "name": "白云山风景名胜区-梅花谷",
      "Latitude": "23.204452",
      "Longitude": "113.31433",
      "address": "广东省广州市白云区广园中路801号白云山风景名胜区",
      "image": "/res/drawable/huangmeigu.jpg",
      "xiangqing": "白云山风景名胜区-梅花谷"
    },
    {
      "id": 12,
      "name": "白云山-明珠楼",
      "Latitude": "23.199586",
      "Longitude": "113.312768",
      "address": "广东省广州市白云区广园中路801号白云山风景名胜区",
      "image": "/res/drawable/mingzhulou.jpg",
      "xiangqing": "白云山-明珠楼"
    },
    {
      "id": 13,
      "name": "白云山风景名胜区望景",
      "Latitude": "23.182098",
      "Longitude": "113.314348",
      "address": "广州市白云区白云山风景名胜区云山中路自编3号望景",
      "image": "/res/drawable/quwanjin.jpg",
      "xiangqing": "白云山风景名胜区望景"
    },
    {
      "id": 14,
      "name": "白云山风景名胜区-白云晚望",
      "Latitude": "23.177632",
      "Longitude": "113.307683",
      "address": "广东省广州市白云区广园中路801号白云山风景名胜区",
      "image": "/res/drawable/baiyunwanwang.jpg",
      "xiangqing": "白云山风景名胜区-白云晚望"
    },
    {
      "id": 15,
      "name": "白云山风景名胜区-白云松涛",
      "Latitude": "23.192834",
      "Longitude": "113.316549",
      "address": "广东省广州市白云区白云大道南788号",
      "image": "/res/drawable/baiyunsongtao.jpg",
      "xiangqing": "白云山风景名胜区-白云松涛"
    },
    {
      "id": 16,
      "name": "白云山风景名胜区-龙仁寺",
      "Latitude": "23.174859",
      "Longitude": "113.306671",
      "address": "广州市白云区广园中路白云山国家级风景名胜区内",
      "image": "/res/drawable/longrensi.jpg",
      "xiangqing": "白云山风景名胜区-龙仁寺"
    },
    {
      "id": 17,
      "name": "白云山国家级风景名胜区-游客中心",
      "Latitude": "23.197866",
      "Longitude": "113.314313",
      "address": "广州市白云区广园中路白云山国家级风景名胜区内",
      "image": "/res/drawable/youke.jpg",
      "xiangqing": "白云山国家级风景名胜区-游客中心"
    },
    {
      "id": 18,
      "name": "白云山风景名胜区-海洋明珠",
      "Latitude": "23.167832",
      "Longitude": "113.301152",
      "address": "广州市白云区白云山风景名胜区海洋明珠",
      "image": "/res/drawable/haiyangmingzhu.jpg",
      "xiangqing": "白云山风景名胜区-海洋明珠"
    }
  ]
}